[
	{
	  "name": "Emma",
	  "lat": 52.49953,
	  "long": 13.390264,
	  "address": "East Water Street",
	  "skill": "Service",
	  "served": true,
	  "time" : "3 p.m."
	},
	{
	  "name": "Olivia",
	  "lat": 52.498772,
	  "long": 13.387855,
	  "address": "Water Street Bagel",
	  "skill": "Installation",
	  "served": true,
	  "time" : "3 p.m."
	},
	{
	  "name": "Ava",
	  "lat": 52.499347,
	  "long": 13.396959,
	  "address": "South Warren Street",
	  "skill": "Service",
	  "served": true,
	  "time" : "3 p.m."
	},
	{
	  "name": "Michael",
	  "lat": 52.50128,
	  "long": 13.392151,
	  "address": "East Fayette Street",
	  "skill": "Service",
	  "served": true,
	  "time" : "3 p.m."
	},
	{
	  "name": "Ethan",
	  "lat": 52.502508,
	  "long": 13.387685,
	  "address": "South Crouse Avenue",
	  "skill": "Installation",
	  "served": true,
	  "time" : "1 p.m."
	},
	{
	  "name": "Alexander",
	  "lat": 52.502325,
	  "long": 13.39198,
	  "address": "University Avenue",
	  "skill": "Service",
	  "served": true,
	  "time" : "3 p.m."
	},
	{
	  "name": "Chloe",
	  "lat": 52.502377,
	  "long": 13.383691,
	  "address": "Harrison Street",
	  "skill": "Installation",
	  "served": true,
	  "time" : "3 p.m."
	},
	{
	  "name": "Elizabeth",
	  "lat": 52.499843,
	  "long": 13.38017,
	  "address": "East Adams Street",
	  "skill": "Service",
	  "served": true,
	  "time" : "3 p.m."
	},
	{
	  "name": "Elijah",
	  "lat": 52.497074,
	  "long": 13.383734,
	  "address": "West Palm Avenue",
	  "skill": "Installation",
	  "served": true,
	  "time" : "3 p.m."
	},
	{
	  "name": "Joshua",
	  "lat": 52.494278,
	  "long": 13.38386,
	  "address": "Suncity Road",
	  "skill": "Service",
	  "served": true,
	  "time" : "3 p.m."
	},
	{
	  "name": "Addison",
	  "lat": 52.503788,
	  "long": 13.408968,
	  "address": "Evershine Road",
	  "skill": "Installation",
	  "served": true,
	  "time" : "3 p.m."
	},
	{
	  "name": "Natalie",
	  "lat": 52.504049,
	  "long": 13.396945,
	  "address": "5th Avenue Road",
	  "skill": "Service",
	  "served": true,
	  "time" : "3 p.m."
	}
  ]